






UnicodeDecodeError: 'utf-8' codec can't decode byte 0x99 in position 0: invalid start byte


















$GPTXT,01,01,02,u-blox ag - www.u-blox.com*50

$GPTXT,01,01,02,HW  UBX-G60xx  00040007 FF7FFFFFp*53

$GPTXT,01,01,02,ROM CORE 7.03 (45969) Mar 17 2011 16:18:34*59

$GPTXT,01,01,02,ANTSUPERV=AC SD PDoS SR*20

$GPTXT,01,01,02,ANTSTATUS=DONTKNOW*33

$GPRMC,153347.94,V,,,,,,,070824,,,N*7E

$GPVTG,,,,,,,,,N*30

$GPGGA,153347.94,,,,,0,00,99.99,,,,,,*6C

$GPGSA,A,1,,,,,,,,,,,,,99.99,99.99,99.99*30

$GPGSV,3,1,11,04,14,078,,05,23,309,,06,24,205,,07,73,119,*76

$GPGSV,3,2,11,09,49,073,,11,42,252,,13,09,260,,16,12,037,*74

$GPGSV,3,3,11,20,51,299,,29,02,316,,30,53,194,*49

$GPGLL,,,,,153347.94,V,N*40

$GPRMC,153348.10,V,,,,,,,070824,,,N*7D

$GPVTG,,,,,,,,,N*30

$GPGGA,153348.10,,,,,0,00,99.99,,,,,,*6F

$GPGSA,A,1,,,,,,,,,,,,,99.99,99.99,99.99*30

$GPGSV,3,1,11,04,14,078,,05,23,309,,06,24,205,,07,73,119,*76

$GPGSV,3,2,11,09,49,073,,11,42,252,,13,09,260,,16,12,037,*74

$GPGSV,3,3,11,20,51,299,,29,02,316,,30,53,194,*49

$GPGLL,,,,,153348.10,V,N*43

$GPRMC,153348.20,V,,,,,,,070824,,,N*7E

$GPVTG,,,,,,,,,N*30

$GPGGA,153348.20,,,,,0,00,99.99,,,,,,*6C

$GPGSA,A,1,,,,,,,,,,,,,99.99,99.99,99.99*30

$GPGSV,3,1,11,04,14,078,45,05,23,309,,06,24,205,,07,73,119,44*77

$GPGSV,3,2,11,09,49,073,,11,42,252,,13,09,260,,16,12,037,42*72

$GPGSV,3,3,11,20,51,299,31,29,02,316,,30,53,194,*4B

$GPGLL,,,,,153348.20,V,N*40

$GPRMC,153348.30,V,,,,,,,070824,,,N*7F

$GPVTG,,,,,,,,,N*30

$GPGGA,153348.30,,,,,0,00,99.99,,,,,,*6D

$GPGSA,A,1,,,,,,,,,,,,,99.99,99.99,99.99*30

$GPGSV,3,1,11,04,14,078,45,05,23,309,28,06,24,205,23,07,73,119,44*7C

$GPGSV,3,2,11,09,49,073,,11,42,252,27,13,09,260,,16,12,037,42*77

$GPGSV,3,3,11,20,51,299,31,29,02,316,,30,53,194,*4B

$GPGLL,,,,,153348.30,V,N*41

$GPRMC,153348.40,V,,,,,,,070824,,,N*78

$GPVTG,,,,,,,,,N*30

$GPGGA,153348.40,,,,,0,07,1.92,,,,,,*57

$GPGSA,A,1,07,20,11,06,05,04,16,,,,,,2.16,1.92,0.98*0B

$GPGSV,3,1,11,04,14,078,45,05,23,309,28,06,24,205,22,07,73,119,44*7D

$GPGSV,3,2,11,09,49,073,,11,42,252,27,13,09,260,,16,12,037,42*77

$GPGSV,3,3,11,20,51,299,31,29,02,316,,30,53,194,*4B

$GPGLL,,,,,153348.40,V,N*46

$GPRMC,153348.50,V,,,,,,,070824,,,N*79

$GPVTG,,,,,,,,,N*30

$GPGGA,153348.50,,,,,0,08,4.11,,,,,,*57

$GPGSA,A,1,07,30,20,11,06,05,04,16,,,,,6.48,4.11,5.01*0C

$GPGSV,3,1,11,04,14,078,45,05,23,309,28,06,24,205,22,07,73,119,44*7D

$GPGSV,3,2,11,09,49,073,,11,42,252,27,13,09,260,,16,12,037,42*77

$GPGSV,3,3,11,20,51,299,31,29,02,316,,30,53,194,22*4B

$GPGLL,,,,,153348.50,V,N*47

$GPRMC,153348.70,V,,,,,,,070824,,,N*7B

$GPVTG,,,,,,,,,N*30

$GPGGA,153348.70,,,,,0,09,4.11,,,,,,*54

$GPGSA,A,1,07,30,20,09,11,06,05,04,16,,,,6.48,4.11,5.01*05

$GPGSV,3,1,11,04,14,078,42,05,23,309,27,06,24,205,21,07,73,119,42*70

$GPGSV,3,2,11,09,49,073,48,11,42,252,26,13,09,260,,16,12,037,41*79

$GPGSV,3,3,11,20,51,299,31,29,02,316,,30,53,194,21*48

$GPGLL,,,,,153348.70,V,N*45

$GPRMC,153348.80,A,4739.37792,N,00929.10952,E,0.328,,070824,,,A*7C

$GPVTG,,T,,M,0.328,N,0.608,K,A*24

$GPGGA,153348.80,4739.37792,N,00929.10952,E,1,09,3.07,432.3,M,47.5,M,,*5D

$GPGSA,A,3,07,30,20,09,11,06,05,04,16,,,,4.52,3.07,3.31*0B

$GPGSV,3,1,11,04,14,078,42,05,23,309,27,06,24,205,21,07,73,119,42*70

$GPGSV,3,2,11,09,49,073,48,11,42,252,26,13,09,260,,16,12,037,41*79

$GPGSV,3,3,11,20,51,299,31,29,02,316,,30,53,194,21*48

$GPGLL,4739.37792,N,00929.10952,E,153348.80,A,A*65

$GPTXT,01,01,02,ANTSTATUS=INIT*25

$GPRMC,153348.90,A,4739.37616,N,00929.10887,E,0.111,,070824,,,A*71

$GPVTG,,T,,M,0.111,N,0.205,K,A*25

$GPGGA,153348.90,4739.37616,N,00929.10887,E,1,09,3.07,429.6,M,47.5,M,,*57

$GPGSA,A,3,07,30,20,09,11,06,05,04,16,,,,4.52,3.07,3.31*0B

$GPGSV,3,1,11,04,14,078,42,05,23,309,27,06,24,205,21,07,73,119,42*70

$GPGSV,3,2,11,09,49,073,48,11,42,252,26,13,09,260,,16,12,037,41*79

$GPGSV,3,3,11,20,51,299,31,29,02,316,,30,53,194,21*48

$GPGLL,4739.37616,N,00929.10887,E,153348.90,A,A*60

$GPRMC,153349.00,A,4739.37594,N,00929.10797,E,0.095,,070824,,,A*73

$GPVTG,,T,,M,0.095,N,0.176,K,A*2F

$GPGGA,153349.00,4739.37594,N,00929.10797,E,1,09,3.07,429.0,M,47.5,M,,*5E

$GPGSA,A,3,07,30,20,09,11,06,05,04,16,,,,4.52,3.07,3.31*0B

$GPGSV,3,1,11,04,14,078,42,05,23,309,27,06,24,205,21,07,73,119,42*70

$GPGSV,3,2,11,09,49,073,48,11,42,252,26,13,09,260,,16,12,037,40*78

$GPGSV,3,3,11,20,51,299,30,29,02,316,,30,53,194,21*49

$GPGLL,4739.37594,N,00929.10797,E,153349.00,A,A*6F

$GPRMC,153349.10,A,4739.37590,N,00929.10691,E,0.113,,070824,,,A*7E

$GPVTG,,T,,M,0.113,N,0.210,K,A*23

$GPGGA,153349.10,4739.37590,N,00929.10691,E,1,09,3.07,427.8,M,47.5,M,,*5A

$GPGSA,A,3,07,30,20,09,11,06,05,04,16,,,,4.52,3.07,3.31*0B

$GPGSV,3,1,11,04,14,078,42,05,23,309,27,06,24,205,20,07,73,119,42*71

$GPGSV,3,2,11,09,49,073,47,11,42,252,26,13,09,260,,16,12,037,41*76

$GPGSV,3,3,11,20,51,299,30,29,02,316,,30,53,194,21*49

$GPGLL,4739.37590,N,00929.10691,E,153349.10,A,A*6D

$GPRMC,153349.20,A,4739.37533,N,00929.10622,E,0.201,,070824,,,A*7C

$GPVTG,,T,,M,0.201,N,0.373,K,A*27

$GPGGA,153349.20,4739.37533,N,00929.10622,E,1,09,3.07,426.6,M,47.5,M,,*57

$GPGSA,A,3,07,30,20,09,11,06,05,04,16,,,,4.52,3.07,3.31*0B

$GPGSV,3,1,11,04,14,078,42,05,23,309,27,06,24,205,20,07,73,119,42*71

$GPGSV,3,2,11,09,49,073,47,11,42,252,26,13,09,260,,16,12,037,41*76

$GPGSV,3,3,11,20,51,299,30,29,02,316,,30,53,194,20*48

$GPGLL,4739.37533,N,00929.10622,E,153349.20,A,A*6F

$GPRMC,153349.30,A,4739.37412,N,00929.10364,E,0.151,,070824,,,A*7E

$GPVTG,,T,,M,0.151,N,0.280,K,A*2C

$GPGGA,153349.30,4739.37412,N,00929.10364,E,1,09,2.73,422.8,M,47.5,M,,*5B

$GPGSA,A,3,07,30,20,09,11,06,05,04,16,,,,3.84,2.73,2.70*01

$GPRMC,153349.40,A,4739.37388,N,00929.10287,E,0.242,,070824,,,A*70

$GPRMC,153349.50,A,4739.37279,N,00929.10091,E,0.214,,070824,,,A*78

$GPVTG,,T,,M,0.214,N,0.397,K,A*29

$GPRMC,153349.60,A,4739.37199,N,00929.09982,E,0.243,,070824,,,A*77

$GPVTG,,T,,M,0.243,N,0.450,K,A*27

$GPRMC,153349.70,A,4739.37145,N,00929.09926,E,0.291,,070824,,,A*76

$GPVTG,,T,,M,0.291,N,0.540,K,A*28

$GPGGA,153349.70,4739.37145,N,00929.09926,E,1,09,1.70,414.7,M,47.5,M,,*56

$GPRMC,153349.80,A,4739.37061,N,00929.09841,E,0.334,,070824,,,A*70

$GPTXT,01,01,00,txbuf alloc*7F

$GPTXT,01,01,02,ANTSTATUS=OK*3B

$GPRMC,153350.10,A,4739.36919,N,00929.09698,E,0.550,,070824,,,A*78

$GPVTG,,T,,M,0.550,N,1.019,K,A*2A

$GPGGA,153350.10,4739.36919,N,00929.09698,E,1,09,1.70,410.2,M,47.5,M,,*53

$GPRMC,153350.20,A,4739.36890,N,00929.09683,E,0.401,,070824,,,A*74

$GPRMC,153350.30,A,4739.36868,N,00929.09666,E,0.266,,070824,,,A*7E

$GPVTG,,T,,M,0.266,N,0.493,K,A*2F

$GPRMC,153350.40,A,4739.36892,N,00929.09667,E,0.197,,070824,,,A*70

$GPVTG,,T,,M,0.197,N,0.365,K,A*2C

$GPRMC,153350.50,A,4739.36860,N,00929.09624,E,0.129,,070824,,,A*7E

$GPVTG,,T,,M,0.129,N,0.239,K,A*21

$GPGGA,153350.50,4739.36860,N,00929.09624,E,1,09,1.70,408.8,M,47.5,M,,*5C

$GPRMC,153350.60,A,4739.36852,N,00929.09618,E,0.167,,070824,,,A*79

$GPRMC,153350.70,A,4739.36853,N,00929.09618,E,0.127,,070824,,,A*7D

$GPVTG,,T,,M,0.127,N,0.234,K,A*22

$GPRMC,153350.80,A,4739.36859,N,00929.09607,E,0.133,,070824,,,A*73

$GPVTG,,T,,M,0.133,N,0.247,K,A*23

$GPRMC,153350.90,A,4739.36858,N,00929.09602,E,0.110,,070824,,,A*77

$GPVTG,,T,,M,0.110,N,0.204,K,A*25

$GPRMC,153351.00,A,4739.36868,N,00929.09593,E,0.108,,070824,,,A*7E

$GPRMC,153351.10,A,4739.36892,N,00929.09596,E,0.128,,070824,,,A*7D

$GPVTG,,T,,M,0.128,N,0.237,K,A*2E

$GPRMC,153351.20,A,4739.36911,N,00929.09600,E,0.243,,070824,,,A*76

$GPRMC,153351.30,A,4739.36964,N,00929.09623,E,0.214,,070824,,,A*76

$GPVTG,,T,,M,0.214,N,0.396,K,A*28

$GPRMC,153351.40,A,4739.37006,N,00929.09647,E,0.159,,070824,,,A*75

$GPVTG,,T,,M,0.159,N,0.294,K,A*21

$GPRMC,153351.50,A,4739.37046,N,00929.09669,E,0.079,,070824,,,A*7F

$GPVTG,,T,,M,0.079,N,0.145,K,A*2D

$GPRMC,153351.60,A,4739.37074,N,00929.09685,E,0.051,,070824,,,A*75

$GPRMC,153351.70,A,4739.37108,N,00929.09703,E,0.039,,070824,,,A*7F

$GPVTG,,T,,M,0.039,N,0.073,K,A*2D

$GPRMC,153351.80,A,4739.37143,N,00929.09719,E,0.086,,070824,,,A*70

$GPRMC,153351.90,A,4739.37168,N,00929.09728,E,0.100,,070824,,,A*75

$GPVTG,,T,,M,0.100,N,0.184,K,A*2F

$GPRMC,153352.00,A,4739.37198,N,00929.09740,E,0.036,,070824,,,A*7A

$GPVTG,,T,,M,0.036,N,0.066,K,A*26

$GPRMC,153352.10,A,4739.37222,N,00929.09751,E,0.003,,070824,,,A*7F

$GPRMC,153352.20,A,4739.37244,N,00929.09755,E,0.039,,070824,,,A*71

$GPVTG,,T,,M,0.039,N,0.073,K,A*2D

$GPGGA,153352.20,4739.37244,N,00929.09755,E,1,09,0.95,415.9,M,47.5,M,,*54

$GPGSA,A,3,07,30,20,09,11,06,05,04,16,,,,1.72,0.95,1.44*04

$GPGSV,3,1,11,04,14,078,43,05,23,309,25,06,24,205,20,07,73,119,43*73

$GPGSV,3,2,11,09,49,073,48,11,42,252,28,13,09,260,,16,12,037,42*74

$GPRMC,153352.30,A,4739.37266,N,00929.09759,E,0.078,,070824,,,A*79

$GPRMC,153352.40,A,4739.37281,N,00929.09765,E,0.021,,070824,,,A*74

$GPVTG,,T,,M,0.021,N,0.039,K,A*2A

$GPRMC,153352.50,A,4739.37293,N,00929.09768,E,0.026,,070824,,,A*7C

$GPVTG,,T,,M,0.026,N,0.047,K,A*24

$GPRMC,153352.60,A,4739.37307,N,00929.09768,E,0.042,,070824,,,A*71

$GPRMC,153352.70,A,4739.37322,N,00929.09765,E,0.065,,070824,,,A*7F

$GPVTG,,T,,M,0.065,N,0.120,K,A*23

$GPRMC,153352.80,A,4739.37336,N,00929.09764,E,0.079,,070824,,,A*79

$GPRMC,153352.90,A,4739.37354,N,00929.09770,E,0.064,,070824,,,A*75

$GPVTG,,T,,M,0.064,N,0.119,K,A*28

$GPRMC,153353.00,A,4739.37372,N,00929.09773,E,0.029,,070824,,,A*73

$GPRMC,153353.10,A,4739.37388,N,00929.09772,E,0.052,,070824,,,A*7A

$GPVTG,,T,,M,0.052,N,0.096,K,A*2B

$GPRMC,153353.20,A,4739.37402,N,00929.09774,E,0.053,,070824,,,A*7B

$GPRMC,153353.30,A,4739.37415,N,00929.09774,E,0.056,,070824,,,A*79

$GPVTG,,T,,M,0.056,N,0.104,K,A*25

$GPRMC,153353.40,A,4739.37426,N,00929.09774,E,0.032,,070824,,,A*7C

$GPVTG,,T,,M,0.032,N,0.059,K,A*2E

$GPRMC,153353.50,A,4739.37438,N,00929.09774,E,0.039,,070824,,,A*79

$GPVTG,,T,,M,0.039,N,0.073,K,A*2D

$GPRMC,153353.60,A,4739.37444,N,00929.09775,E,0.091,,070824,,,A*72

$GPRMC,153353.80,A,4739.37457,N,00929.09778,E,0.031,,070824,,,A*79

$GPVTG,,T,,M,0.031,N,0.058,K,A*2C

$GPRMC,153353.90,A,4739.37465,N,00929.09780,E,0.089,,070824,,,A*7D

$GPVTG,,T,,M,0.089,N,0.164,K,A*21

$GPRMC,153354.00,A,4739.37470,N,00929.09781,E,0.048,,070824,,,A*7B

$GPVTG,,T,,M,0.048,N,0.089,K,A*2E

$GPRMC,153354.10,A,4739.37474,N,00929.09781,E,0.005,,070824,,,A*77

$GPRMC,153354.20,A,4739.37478,N,00929.09781,E,0.057,,070824,,,A*7F

$GPVTG,,T,,M,0.057,N,0.105,K,A*25

$GPGGA,153354.20,4739.37478,N,00929.09781,E,1,09,0.95,420.3,M,47.5,M,,*5E

$GPRMC,153354.30,A,4739.37482,N,00929.09782,E,0.047,,070824,,,A*79

$GPRMC,153354.40,A,4739.37487,N,00929.09784,E,0.133,,070824,,,A*7F

$GPRMC,153354.50,A,4739.37493,N,00929.09785,E,0.201,,070824,,,A*78

$GPVTG,,T,,M,0.201,N,0.373,K,A*27

$GPRMC,153354.60,A,4739.37499,N,00929.09787,E,0.155,,070824,,,A*71

$GPRMC,153354.70,A,4739.37505,N,00929.09789,E,0.198,,070824,,,A*7B

$GPVTG,,T,,M,0.198,N,0.366,K,A*20

$GPRMC,153354.80,A,4739.37510,N,00929.09791,E,0.173,,070824,,,A*7C

$GPVTG,,T,,M,0.173,N,0.320,K,A*27

$GPTXT,01,01,00,txbuf alloc*7F

$GPRMC,153354.90,A,4739.37516,N,00929.09792,E,0.250,,070824,,,A*7A

$GPVTG,,T,,M,0.250,N,0.464,K,A*22

$GPRMC,153355.00,A,4739.37520,N,00929.09794,E,0.218,,070824,,,A*7D

$GPRMC,153355.10,A,4739.37524,N,00929.09795,E,0.242,,070824,,,A*76

$GPVTG,,T,,M,0.242,N,0.449,K,A*2E

$GPRMC,153355.20,A,4739.37529,N,00929.09796,E,0.195,,070824,,,A*72

$GPVTG,,T,,M,0.195,N,0.361,K,A*2A

$GPRMC,153355.30,A,4739.37534,N,00929.09798,E,0.118,,070824,,,A*74

$GPVTG,,T,,M,0.118,N,0.219,K,A*21

$GPRMC,153355.40,A,4739.37528,N,00929.09797,E,0.225,,070824,,,A*7C

$GPVTG,,T,,M,0.225,N,0.416,K,A*25

$GPRMC,153355.50,A,4739.37522,N,00929.09793,E,0.230,,070824,,,A*77

$GPRMC,153355.60,A,4739.37516,N,00929.09790,E,0.264,,070824,,,A*71

$GPVTG,,T,,M,0.264,N,0.489,K,A*26

$GPRMC,153355.70,A,4739.37510,N,00929.09787,E,0.210,,070824,,,A*73

$GPVTG,,T,,M,0.210,N,0.389,K,A*22

$GPRMC,153355.80,A,4739.37505,N,00929.09784,E,0.157,,070824,,,A*7B

$GPVTG,,T,,M,0.157,N,0.290,K,A*2B

$GPRMC,153355.90,A,4739.37500,N,00929.09781,E,0.149,,070824,,,A*75

$GPRMC,153356.00,A,4739.37495,N,00929.09778,E,0.091,,070824,,,A*70

$GPVTG,,T,,M,0.091,N,0.169,K,A*25

$GPRMC,153356.10,A,4739.37491,N,00929.09776,E,0.125,,070824,,,A*75

$GPRMC,153356.20,A,4739.37487,N,00929.09774,E,0.157,,070824,,,A*76

$GPVTG,,T,,M,0.157,N,0.292,K,A*29

$GPRMC,153356.30,A,4739.37483,N,00929.09772,E,0.034,,070824,,,A*71

$GPVTG,,T,,M,0.034,N,0.063,K,A*21

$GPRMC,153356.40,A,4739.37478,N,00929.09770,E,0.046,,070824,,,A*75

$GPVTG,,T,,M,0.046,N,0.084,K,A*2D

$GPRMC,153356.50,A,4739.37474,N,00929.09768,E,0.041,,070824,,,A*76

$GPVTG,,T,,M,0.041,N,0.076,K,A*27

$GPRMC,153356.60,A,4739.37470,N,00929.09765,E,0.025,,070824,,,A*7E

$GPRMC,153356.70,A,4739.37466,N,00929.09762,E,0.090,,070824,,,A*71

$GPRMC,153356.80,A,4739.37461,N,00929.09760,E,0.064,,070824,,,A*70

$GPVTG,,T,,M,0.064,N,0.119,K,A*28

$GPRMC,153356.90,A,4739.37458,N,00929.09758,E,0.062,,070824,,,A*76

$GPVTG,,T,,M,0.062,N,0.115,K,A*22

$GPRMC,153357.00,A,4739.37454,N,00929.09754,E,0.058,,070824,,,A*77

$GPVTG,,T,,M,0.058,N,0.107,K,A*28

$GPRMC,153357.10,A,4739.37451,N,00929.09752,E,0.066,,070824,,,A*78

$GPRMC,153357.20,A,4739.37448,N,00929.09750,E,0.081,,070824,,,A*78

$GPVTG,,T,,M,0.081,N,0.149,K,A*26

$GPRMC,153357.30,A,4739.37446,N,00929.09748,E,0.036,,070824,,,A*72

$GPRMC,153357.40,A,4739.37443,N,00929.09747,E,0.018,,070824,,,A*73

$GPVTG,,T,,M,0.018,N,0.034,K,A*2D

$GPRMC,153357.50,A,4739.37442,N,00929.09746,E,0.104,,070824,,,A*7E

$GPVTG,,T,,M,0.104,N,0.192,K,A*2C

$GPRMC,153357.60,A,4739.37439,N,00929.09745,E,0.015,,070824,,,A*73

$GPRMC,153357.70,A,4739.37437,N,00929.09744,E,0.072,,070824,,,A*7C

$GPVTG,,T,,M,0.072,N,0.132,K,A*26

$GPRMC,153357.80,A,4739.37435,N,00929.09743,E,0.204,,070824,,,A*75

$GPVTG,,T,,M,0.204,N,0.377,K,A*26

$GPRMC,153357.90,A,4739.37433,N,00929.09742,E,0.175,,070824,,,A*76

$GPVTG,,T,,M,0.175,N,0.324,K,A*25

$GPRMC,153358.00,A,4739.37430,N,00929.09741,E,0.196,,070824,,,A*7D

$GPVTG,,T,,M,0.196,N,0.363,K,A*2B

$GPRMC,153358.10,A,4739.37429,N,00929.09740,E,0.272,,070824,,,A*7C

$GPRMC,153358.20,A,4739.37426,N,00929.09739,E,0.283,,070824,,,A*70

$GPVTG,,T,,M,0.283,N,0.524,K,A*29

$GPRMC,153358.30,A,4739.37424,N,00929.09739,E,0.255,,070824,,,A*78

$GPVTG,,T,,M,0.255,N,0.472,K,A*20

$GPRMC,153358.40,A,4739.37422,N,00929.09739,E,0.079,,070824,,,A*75

$GPVTG,,T,,M,0.079,N,0.146,K,A*2E

$GPRMC,153358.50,A,4739.37420,N,00929.09739,E,0.051,,070824,,,A*7C

$GPVTG,,T,,M,0.051,N,0.094,K,A*2A

$GPRMC,153358.60,A,4739.37418,N,00929.09739,E,0.068,,070824,,,A*7E

$GPRMC,153358.70,A,4739.37416,N,00929.09739,E,0.035,,070824,,,A*79

$GPRMC,153358.80,A,4739.37415,N,00929.09741,E,0.059,,070824,,,A*70

$GPVTG,,T,,M,0.059,N,0.110,K,A*2F

$GPRMC,153358.90,A,4739.37414,N,00929.09742,E,0.159,,070824,,,A*72

$GPVTG,,T,,M,0.159,N,0.295,K,A*20

$GPRMC,153359.00,A,4739.37413,N,00929.09742,E,0.194,,070824,,,A*7C

$GPRMC,153359.10,A,4739.37413,N,00929.09743,E,0.225,,070824,,,A*75

$GPVTG,,T,,M,0.225,N,0.417,K,A*24

$GPRMC,153359.20,A,4739.37411,N,00929.09743,E,0.176,,070824,,,A*71

$GPRMC,153359.30,A,4739.37410,N,00929.09745,E,0.216,,070824,,,A*72

$GPVTG,,T,,M,0.216,N,0.400,K,A*22

$GPRMC,153359.40,A,4739.37409,N,00929.09745,E,0.088,,070824,,,A*78

$GPVTG,,T,,M,0.088,N,0.162,K,A*26

$GPRMC,153359.50,A,4739.37407,N,00929.09746,E,0.103,,070824,,,A*76

$GPVTG,,T,,M,0.103,N,0.191,K,A*28

$GPRMC,153359.60,A,4739.37407,N,00929.09748,E,0.097,,070824,,,A*77

$GPRMC,153359.70,A,4739.37405,N,00929.09749,E,0.011,,070824,,,A*7B

$GPVTG,,T,,M,0.011,N,0.020,K,A*21

$GPRMC,153359.80,A,4739.37404,N,00929.09751,E,0.061,,070824,,,A*7B

$GPVTG,,T,,M,0.061,N,0.113,K,A*27

$GPTXT,01,01,00,txbuf alloc*7F

$GPRMC,153359.90,A,4739.37403,N,00929.09753,E,0.061,,070824,,,A*7F

$GPVTG,,T,,M,0.061,N,0.113,K,A*27

$GPRMC,153400.00,A,4739.37402,N,00929.09754,E,0.105,,070824,,,A*78

$GPVTG,,T,,M,0.105,N,0.194,K,A*2B

$GPRMC,153400.10,A,4739.37401,N,00929.09755,E,0.122,,070824,,,A*7E

$GPRMC,153400.20,A,4739.37401,N,00929.09756,E,0.086,,070824,,,A*71

$GPVTG,,T,,M,0.086,N,0.160,K,A*2A

$GPRMC,153400.30,A,4739.37399,N,00929.09757,E,0.103,,070824,,,A*7B

$GPVTG,,T,,M,0.103,N,0.191,K,A*28

$GPRMC,153400.40,A,4739.37399,N,00929.09758,E,0.092,,070824,,,A*7A

$GPVTG,,T,,M,0.092,N,0.169,K,A*26

$GPRMC,153400.50,A,4739.37397,N,00929.09758,E,0.083,,070824,,,A*75

$GPVTG,,T,,M,0.083,N,0.153,K,A*2F

$GPRMC,153400.60,A,4739.37397,N,00929.09759,E,0.089,,070824,,,A*7D

$GPRMC,153400.70,A,4739.37396,N,00929.09760,E,0.020,,070824,,,A*74

$GPVTG,,T,,M,0.020,N,0.038,K,A*2A

$GPR















